timestamp,roll,pitch,yaw,thrust,motor[0],motor[1],motor[2],motor[3]
9863758020,0.00090478413,0.00042456598,0.0004601099,-0.0,5.820766e-11,0.0,0.0,0.0
9863765918,0.0005601258,2.406392e-06,0.0002167779,-0.0,0.0,0.0,4.3655746e-11,0.0
9863861562,-0.0007079341,0.00081557955,-0.000113232956,-0.0,0.0,0.0,0.0,0.0
9863962178,0.00045336637,0.0010381897,2.9171055e-05,-0.0,0.0,0.0,0.0,0.0
9864062644,0.010049903,0.00097562093,0.0015766295,0.001,0.0013797363,0.0006202628,0.0019999999,0.0
9864162223,0.008902361,0.0022706906,0.00030040368,0.001,0.0019999999,0.0,0.0019999999,0.0
9864261278,0.0086362185,0.0007809027,-8.821432e-06,0.001,0.0010976122,0.0008868154,0.0020067508,8.821431e-06
9864360532,0.0072994446,0.001865969,8.8710236e-05,0.001,0.0019999999,0.0,0.0020000008,0.0
9864459916,0.008428473,0.0036859263,-0.00014281213,0.001,0.0019999999,0.0,0.0019999999,0.0
9864560078,0.008675519,0.002768154,-0.00016652381,0.001,0.0020000003,0.0,0.0019999994,1.1641532e-10
9864660035,0.00832662,0.002580674,0.00015733122,0.001,0.0019999999,0.0,0.0019999999,0.0
9864760092,0.008166313,0.0034143731,0.0002894769,0.001,0.0019999999,2.3283064e-10,0.0019999999,0.0
9864860458,0.008734009,0.0022821545,-4.3279492e-06,0.001,0.0019999999,0.0,0.0019999999,0.0
9864960195,0.009197844,0.0033263154,-4.5249413e-05,0.001,0.0019999992,0.0,0.002000001,0.0
9865060630,0.009400735,0.0031698607,4.370684e-05,0.001,0.0020000003,0.0,0.0019999994,0.0
9865160977,0.008732153,0.001839419,-0.00066268706,0.001,0.0019999996,0.0,0.0019999999,0.0
9865260891,0.00798705,0.002049902,-0.00016841784,0.001,0.0020000003,0.0,0.0019999994,0.0
9865360923,0.008605027,-2.2727996e-05,0.0007531728,0.001,2.45985e-05,0.0020321414,0.0019432597,0.0
9865460995,0.007779294,0.0012271926,0.00012211582,0.001,0.0017355122,0.00026448746,0.002,0.0
9865560912,0.0068878266,6.5644854e-06,-0.000268967,0.001,0.0,0.0019785862,0.0020092835,1.213004e-05
9865660844,0.00780685,0.0009850083,0.00020995343,0.001,0.001393012,0.00060698786,0.002,0.0
9865761114,0.0064929696,0.0015508475,0.00031506698,0.001,0.0019999999,0.0,0.002,0.0
9865860876,0.0069393506,0.0016286568,0.00015642976,0.001,0.0019999999,0.0,0.002,0.0
9865961352,0.0071337842,0.0013985949,0.0004891233,0.001,0.0019779117,2.2088178e-05,0.0019999996,0.0
9866062077,0.005714296,0.0007655334,0.00047562082,0.001,0.0010826273,0.00091737235,0.002,0.0
9866159080,0.007937989,0.00080133276,0.0005860949,0.001,0.0011332557,0.0008667439,0.002,0.0
9866259774,0.0077405274,0.0017125331,-0.00014784218,0.001,0.0019999999,0.0,0.002,0.0
9866360155,0.0067226696,0.0016266513,-2.924608e-05,0.001,0.0019999999,0.0,0.0019999992,0.0
9866456579,0.006523998,0.00033604546,0.000268902,0.001,0.00024092963,0.0010384365,0.002312413,0.00040822008
9866560295,0.008024365,3.2657408e-06,0.00010476125,0.001,4.618196e-06,0.0019953812,0.0020000003,0.0
9866660663,0.007440175,-4.453468e-07,-0.00020763592,0.001,0.0,0.0019999996,0.0019993696,6.300397e-07
9866760413,0.006889597,7.971597e-06,-0.00037659446,0.001,0.0,0.0019739955,0.0020112735,1.4730584e-05
9866860485,0.0068660565,0.0021657052,-8.110749e-06,0.001,0.0019999999,0.0,0.0019999999,0.0
9866960621,0.006612546,0.00047506596,1.1671213e-05,0.001,0.00067184423,0.0013281556,0.0020000003,0.0
9867061009,0.006675006,0.0005590075,0.00036880287,0.001,0.00079055596,0.0012094439,0.002,0.0
9867161202,0.005520408,0.0018462782,-0.0003232716,0.001,0.0019999999,0.0,0.0019999994,0.0
9867261609,0.005248499,0.0012684768,0.00030280734,0.001,0.0017938972,0.00020610262,0.0019999999,0.0
9867362118,0.0064550163,0.0017783833,0.000500372,0.001,0.002,0.0,0.002,0.0
9867462832,0.0059321052,0.0026999242,0.00034731333,0.001,0.0019999999,0.0,0.0019999999,0.0
9867562546,0.006401852,0.0022022037,0.00011566036,0.001,0.0019999999,0.0,0.0019999999,0.0
9867662962,0.006818475,0.00014762825,0.00078095886,0.001,0.00020877761,0.0017912219,0.002,0.0
9867762703,0.0074295183,0.0013478663,0.0001991366,0.001,0.0019061705,9.382935e-05,0.002,0.0
9867862565,0.0056313365,0.0015513031,0.00029213555,0.001,0.0019999999,0.0,0.0019999999,0.0
9867962786,0.0061347364,0.0024413713,0.0004445728,0.001,0.0019999996,1.1641532e-10,0.0019999996,0.0
9868062872,0.006402371,0.00087196234,0.00087452045,0.001,0.0012331409,0.0007668589,0.0019999999,0.0
9868159003,0.0077275536,0.0015796808,0.00061648985,0.001,0.0019999996,0.0,0.0019999999,0.0
9868258970,0.0073466087,0.0012203078,0.0005046927,0.001,0.0017257759,0.00027422397,0.0019999996,0.0
9868359125,0.008053671,0.00011016434,0.00040357406,0.001,0.0001557963,0.0018442038,0.0019999996,0.0
9868459359,0.0073405327,0.0013335971,0.0012525347,0.001,0.0018859908,0.000114008784,0.0019999999,0.0
9868559450,0.0077093844,0.0012397039,0.0005465608,0.001,0.0017532059,0.00024679373,0.0019999996,0.0
9868659646,0.0076804864,0.00021742389,0.0005100465,0.001,0.00030748363,0.001692516,0.0020000003,0.0
9868759453,0.0071417456,0.0010050951,0.00056458433,0.001,0.001421419,0.0005785809,0.0019999996,0.0
9868859691,0.006818451,7.533422e-05,8.36011e-05,0.001,0.000106538646,0.0018934612,0.0019999996,0.0
9868959806,0.0074889855,0.0013541774,0.0005049076,0.001,0.0019150964,8.490379e-05,0.0019999996,0.0
9869060234,0.007403274,0.00075611554,-0.000118842836,0.001,0.0009783576,0.0008118481,0.0020909507,0.00011884283
9869156259,0.006692578,0.0013221245,5.474093e-06,0.001,0.00049570436,0.0015042957,0.002,0.0
9869260453,0.00789235,0.0005282865,0.000140867,0.001,0.00074710976,0.0012528903,0.0019999996,0.0
9869360429,0.006532319,0.0030226153,0.00017629552,0.001,0.0019999999,0.0,0.0019999999,0.0
9869461288,0.0078685125,0.0010928019,0.0003282663,0.001,0.0015454553,0.00045454482,0.0019999996,0.0
9869561125,0.00735799,0.0010070348,0.00025844006,0.001,0.0014241617,0.0005758379,0.0020000008,0.0
9869661455,0.007686222,0.0005836769,-2.9222529e-05,0.001,0.0008030796,0.0011453333,0.0020223637,2.9222527e-05
9869761494,0.0073490483,0.001089583,0.0005529725,0.001,0.001540903,0.00045909663,0.0019999999,0.0
9869861658,0.007373676,-0.00040096993,-0.00075571344,0.001,0.0,0.002,0.0014329428,0.0005670569
9869961869,0.006997037,-0.0068347766,-0.000622801,0.016048318,0.007272548,0.02372465,0.01515825,0.018037817
9870062015,0.006894218,-0.0055214376,0.00018671644,0.03102924,0.023852604,0.03853548,0.03039738,0.031331487
9870161789,0.007001114,-0.0062883897,0.00014447908,0.04603454,0.038230307,0.054093815,0.044945642,0.046868384
9870262155,0.0065563093,-0.0059659183,4.1013485e-05,0.062992536,0.05555749,0.07049997,0.061990485,0.06392217
9870362239,0.006708175,-0.0070969844,0.00023660185,0.08145031,0.07328993,0.09002835,0.079574026,0.08290891
9870462758,0.0069736196,-0.0060751853,0.0005604819,0.10245437,0.09513288,0.11076527,0.10118424,0.102735065
9870562411,0.0073245326,-0.0057624066,-6.0281065e-05,0.12669247,0.11894324,0.13433528,0.12629241,0.12719892
9870662488,0.0066520898,-0.006927062,0.00025712218,0.14970121,0.14170446,0.15815182,0.14790158,0.15104692
9870762439,0.007787965,-0.00614432,-0.00030387886,0.17854114,0.17010584,0.18643996,0.17828703,0.17933166
9870862955,0.0075403936,-0.0077382904,0.00028460356,0.20648064,0.19749124,0.21597241,0.2045264,0.20793244
9870959294,0.009120315,-0.008879924,0.00029089965,0.23599225,0.22541775,0.24708025,0.23400861,0.23746234
9871059522,0.011279371,-0.008464062,-6.645898e-05,0.267564,0.2559405,0.2790701,0.26721746,0.2680278
9871159617,0.010467407,-0.010604499,-0.00011680927,0.30070475,0.2879314,0.31327182,0.298481,0.30313465
9871259828,0.011521017,-0.012376283,0.0006215386,0.340466,0.32648295,0.35554618,0.33694625,0.34288847
9871360170,0.012549236,-0.012608572,-0.00047653873,0.3794008,0.3639038,0.3940565,0.37706652,0.38257623
9871456127,0.012677856,-0.0135279205,0.0005799199,0.4118316,0.40083304,0.4320801,0.41495022,0.4188642
9871559986,0.014631025,-0.015431928,-0.00037467605,0.46246293,0.4440162,0.4802482,0.45908558,0.46650162
9871660394,0.015801165,-0.014731825,0.00045694734,0.50704634,0.48915136,0.52574784,0.50410724,0.5091787
9871760569,0.015901146,-0.015862344,7.173638e-05,0.5511508,0.5321121,0.570316,0.5477566,0.5544182
9871856764,0.01610529,-0.015415011,-0.00014647348,0.5906761,0.57449937,0.6174335,0.5929178,0.601489
9871960662,0.018402942,-0.018419024,-0.00017875692,0.6507881,0.62851053,0.67275006,0.6470172,0.6548745
9872060590,0.018833773,-0.017775686,1.27033745e-05,0.7017333,0.6798437,0.72364515,0.6984841,0.7049599
9872161592,0.012985533,-0.014200385,0.00010758054,0.7171332,0.70074147,0.73371476,0.7134425,0.7206339
9872261608,-0.0018677637,0.0060808994,0.0002082253,0.7259806,0.731365,0.7209636,0.7291957,0.72239774
9872362026,-0.0035382384,0.009333821,-0.00017397568,0.73138094,0.73960054,0.7228541,0.73636127,0.72670764
9872462322,-0.0011200239,0.0067623826,-0.00011432416,0.7335012,0.7387502,0.72805023,0.7378155,0.7293886
9872562166,-0.00029153907,0.0024785155,-0.0002091659,0.7354168,0.73715365,0.73331064,0.737185,0.7340178
9872662234,0.00072621997,0.00094976614,0.00043908306,0.7368561,0.73750395,0.7369833,0.73755133,0.7353856
9872762487,0.0006464529,0.00021200388,-5.843467e-06,0.73682547,0.7366506,0.7369899,0.73730004,0.7363611
9872862919,0.0010811781,0.0027748428,3.7685359e-06,0.7370261,0.7384554,0.7356033,0.7395209,0.73452455
9872958891,0.0005925617,0.0020337717,4.32488e-05,0.7368833,0.73806083,0.73578197,0.7385818,0.7351083
9873062737,0.0012617455,0.00015716569,-2.0497991e-06,0.73637533,0.7358598,0.73688716,0.737113,0.7356411
9873162850,-0.00030518195,0.0018032922,0.0007299063,0.7361877,0.73817253,0.7354913,0.736753,0.73433375
9873259121,3.3941265e-05,0.0026495554,-0.00048075814,0.7354251,0.7369138,0.7330876,0.73768336,0.73401546
9873359959,-0.00039573203,0.002677209,-0.00091194425,0.7348555,0.7362466,0.7318544,0.7372503,0.73407036
9873459231,0.0010559473,0.0021650558,4.467549e-05,0.73525745,0.73629946,0.73429424,0.7372772,0.73315865
9873559129,0.0002295369,0.00055355404,-0.00015592886,0.734892,0.7350503,0.7344583,0.7355164,0.7345427
9873659680,-0.00058588746,0.0020702078,-0.00039801103,0.7350297,0.73647916,0.7328775,0.73650783,0.73425406
9873760778,0.00070918584,0.001729303,-8.01468e-05,0.735413,0.7362231,0.7344613,0.7370484,0.733919
9873860636,5.5415847e-05,0.0018392032,5.9160386e-05,0.73521227,0.73653054,0.73399836,0.7364949,0.733825
9873960588,-0.0002920432,0.0034378846,-0.000106554384,0.735532,0.738026,0.7328497,0.7378997,0.73335224
9874060500,-0.0001257105,0.0019518209,-0.00045360305,0.7342648,0.73536,0.7323687,0.7359297,0.73340046
9874160753,0.0005938628,0.0025848625,-0.00035533018,0.7338585,0.7351201,0.7319696,0.73625237,0.7320918
9874260742,0.0014902458,0.0012007332,-0.0001636607,0.73368555,0.73367107,0.733411,0.735398,0.7322619
9874360579,-0.0006674788,0.0011289886,-0.00010264909,0.733677,0.7347274,0.73244536,0.7342232,0.73331195
9874460563,0.0007186404,0.001549081,-0.00039084358,0.7333864,0.7338266,0.7322562,0.7351368,0.7323258
9874560310,-0.0010157702,0.0020016914,-5.496389e-05,0.73365223,0.7355287,0.7316786,0.73460644,0.73279494
9874660334,-0.0002617953,0.0025703625,-0.0001776757,0.7336613,0.7354725,0.7315363,0.735485,0.7321511
9874760436,0.0006816344,0.0007798117,-4.2492607e-05,0.73359424,0.7337754,0.73333794,0.7345158,0.7327476
9874860389,0.0007253426,0.0018638766,0.00034218724,0.7331388,0.73435926,0.7325223,0.7345541,0.7311193
9874960655,0.0012563202,0.0016277158,0.00016492321,0.73310053,0.73375535,0.73273677,0.7347476,0.7311622
9875060746,-0.0002530822,0.0014043007,-2.7735212e-05,0.7332786,0.73437566,0.73213243,0.73416734,0.7324386
9875161500,-0.00036848942,0.002525909,0.00013379326,0.73346734,0.7355383,0.7316325,0.7349684,0.7317299
9875262438,0.0013797849,0.0037855757,0.00019953652,0.73331946,0.7354654,0.73152566,0.736527,0.7297595
9875358799,0.0009959368,0.0018756184,-0.00016978574,0.7333196,0.7340225,0.7323168,0.73526907,0.7316697
9875462648,0.0005611205,0.0010915167,-9.6556716e-05,0.7334885,0.73390836,0.73289806,0.73461217,0.7325352
9875562477,0.0005412749,0.0015442095,-0.00017181845,0.7337,0.7343922,0.7327043,0.73519146,0.7325117
9875663004,0.0008027644,0.0016922907,-0.0004134127,0.73360425,0.73408675,0.73239183,0.7355149,0.7324233
9875759223,0.001372833,0.0020395499,-0.00013321677,0.73322636,0.7338865,0.732331,0.7354505,0.73123723
9875859302,0.00070528913,-0.00046641953,0.00050209713,0.73333126,0.7330363,0.7345125,0.73296654,0.7328095
9875959524,0.00076124223,0.002609624,0.00014811072,0.7335397,0.7351212,0.7322196,0.7356487,0.7311691
9876059885,0.000740002,0.0037447363,-3.1510303e-05,0.73336136,0.73561853,0.7310484,0.73639995,0.7303783
9876160135,-0.00020277954,0.0024507437,0.0007649886,0.733519,0.7359378,0.73245054,0.73456603,0.7311215
9876260320,0.0019803892,-0.57494783,-0.00016034322,0.89592946,0.1848161,0.99983966,0.18702365,0.99819815
9876360448,-2.191303e-05,0.0061262846,-0.0012513533,0.8113615,0.81474656,0.8057673,0.8166402,0.8082917
9876460497,-0.00091540586,0.19588669,-0.0006203799,0.65471256,0.793204,0.5151259,0.79324657,0.51727355
9876560258,2.2058637e-05,0.15594481,0.001158452,0.596468,0.70761317,0.48736766,0.7058619,0.4850289
9876660532,0.0003988776,0.05072932,0.0015902041,0.5815874,0.61847776,0.54750407,0.6164389,0.5439285
9876760444,0.0007665335,-0.019590108,0.0008178973,0.62502766,0.6114215,0.64007753,0.6109291,0.63768226
9876860449,-0.0004449364,-0.032039307,-0.00043006561,0.7165407,0.6937767,0.73854536,0.69399416,0.7398463
9876960474,0.0011554775,-0.020766135,-0.0006381257,0.7801862,0.7644415,0.7948043,0.766563,0.7949357
9877060331,0.0002837852,-0.009588584,-0.0006748415,0.81388515,0.80644786,0.820131,0.80776197,0.82119954
9877160364,3.742933e-05,-0.007805037,-0.00050907425,0.84311944,0.8371923,0.8481478,0.8380085,0.8491289
9877260520,0.0006638599,-0.010892096,-0.00016206343,0.8055127,0.7973579,0.8133813,0.79826367,0.81304777
9877360531,0.0013617182,-0.013112789,0.00027733142,0.7887743,0.7790398,0.7989983,0.77996445,0.79709446
9877456502,0.0017731348,-0.015196882,-0.0001906762,0.78700244,0.77448356,0.7991941,0.77496797,0.79860574
9877560284,0.0008655678,-0.01887937,-8.026434e-05,0.7882047,0.7743647,0.8019029,0.7753452,0.8012059
9877660680,0.0010707444,-0.020025095,0.00027962023,0.7906128,0.7761364,0.8055827,0.77676934,0.8039626
9877761615,-0.00022788305,-0.021962719,0.00036709313,0.79306906,0.7779328,0.8088532,0.7771452,0.8083448
9877861819,0.0007847466,0.538721,0.00030241927,0.6663004,0.99945396,0.23843579,0.99976856,0.23705347
9877962652,-0.00048504237,0.07773292,0.0014320614,0.818342,0.8746436,0.7645682,0.87197113,0.7621847
9878062856,-0.0045903716,-0.023678267,0.002758829,0.7555737,0.7432159,0.7728015,0.7344452,0.77183187
9878159323,-0.0009661705,-0.29299927,0.0011508162,0.7362108,0.53038836,0.9440647,0.52766967,0.94272035
9878259822,0.00088268815,-0.25272518,-0.00024747796,0.8094119,0.6300814,0.98830533,0.63133484,0.9879257
9878355992,0.0002975951,-0.083148114,-0.001259576,0.89550716,0.8356011,0.95318955,0.8378239,0.9554138
9878460227,0.0012786852,0.02242197,-0.00077980367,0.94037974,0.9550042,0.9243786,0.9574646,0.92467135
9878556198,0.0008284674,0.035664067,-0.00027301518,0.9241705,0.93863523,0.89964217,0.9396574,0.89839816
9878660543,0.00023183497,0.0058578793,0.00044168433,0.86866474,0.87303,0.86507905,0.8725837,0.863966
9878760514,0.0004955731,-0.006776089,-0.00014573784,0.8326978,0.82754934,0.8375889,0.82826334,0.8373894
9878860624,0.00044280913,-0.0034085154,0.00059438765,0.8101012,0.80792654,0.81332505,0.8074554,0.8116976
9878960539,0.0004619601,0.0001759576,0.00047994003,0.7937884,0.7940512,0.7943727,0.7937743,0.7929551
9879060621,0.001033237,0.0033029485,-0.00024182691,0.7830145,0.784653,0.78094894,0.78604686,0.78040886
9879160414,0.0007303662,0.0055706003,0.000118691976,0.7809604,0.78462833,0.7775018,0.7851703,0.7765408
9879260597,-0.00014235853,0.008641107,0.00035830782,0.77985156,0.78630644,0.7740291,0.78561693,0.77345353
9879360632,0.0004516397,0.008143841,0.0004646254,0.7809436,0.78683394,0.7758733,0.7865702,0.7744966
9879460601,-0.00022705458,0.011658867,0.0003033707,0.78315574,0.7917444,0.7751025,0.7910551,0.7747207
9879560106,0.0013392984,0.012719282,0.00013920192,0.7854172,0.79385406,0.7772259,0.794968,0.7756206
9879660442,3.5551784e-05,0.0151317315,4.1355226e-05,0.78488016,0.7955939,0.7742393,0.7955658,0.7741214
9879760461,-0.0023184721,-0.08319366,-0.0006020343,0.65177757,0.5936385,0.7088538,0.5922629,0.71235484
9879860400,-0.06844894,0.19471908,-0.0046819597,0.69191146,0.8599239,0.5156338,0.7992732,0.5928146
9879960365,-0.033588573,0.1654826,0.01871913,0.8661164,1.0,0.7370871,0.9380698,0.73292726
9880060496,0.14998516,0.051774427,-0.0040929746,0.8009804,0.76015776,0.83457744,0.91502297,0.6941631
9880160737,0.0735459,0.0007662,-0.031958725,0.7595492,0.69919926,0.7634821,0.8209826,0.75453264
9880260872,0.02016785,-0.00033344282,-0.024091708,0.7702526,0.7415884,0.7563874,0.79844505,0.78458923
9880361537,-0.007049636,0.0068455944,-0.011522932,0.7859156,0.78542984,0.76605976,0.79608244,0.7960902
9880462302,-0.013140304,0.014968907,-0.0027199448,0.7885331,0.8035456,0.768719,0.7946897,0.78717786
9880561996,-0.012635536,0.01762657,0.0013226415,0.7885678,0.80830324,0.77116704,0.79375994,0.78104067
9880662139,-0.0118227955,0.016220102,0.0023216922,0.7886367,0.8077396,0.77363217,0.79247236,0.78070235
9880762848,-0.013208518,0.014895868,0.0014671057,0.78867275,0.8068717,0.77306354,0.7915396,0.7832159
9880859420,-0.0137552135,0.013314086,0.001444224,0.7874444,0.80477816,0.77266,0.7889395,0.78339976
9880959999,-0.015590055,0.013054645,0.0013062385,0.78869855,0.80665225,0.77305067,0.7892068,0.78588426
9881059686,-0.017057955,0.011754552,0.0004175083,0.7910816,0.80816305,0.7747371,0.7906235,0.79080254
9881159384,-0.018549109,0.011887012,0.0006779616,0.79244757,0.8105607,0.7755311,0.7911451,0.7925531
9881259369,-0.019492656,0.011625395,0.00013851514,0.79211986,0.8101025,0.7743816,0.7905779,0.7934172
9881359655,-0.020503951,0.010305584,0.00046044495,0.792496,0.81029284,0.7755119,0.7892734,0.79490566
9881459588,-0.021509025,0.010131136,-0.00078009424,0.7943418,0.81156373,0.77574265,0.79144734,0.79861325
9881559494,-0.023900945,0.011960658,0.00073375483,0.7962855,0.8171446,0.7767216,0.79234123,0.7989344
9881659899,-0.025377179,0.009872158,0.0003209681,0.7954815,0.8152792,0.7762503,0.789645,0.80075127
9881760451,-0.027548062,0.009766817,2.2075139e-05,0.79511946,0.8156893,0.7745884,0.78836185,0.80183804
9881860416,-0.027638387,0.010800477,0.00030446472,0.79718506,0.8187467,0.7761608,0.7908975,0.80293506
9881960555,0.3610235,0.011617584,-0.0035796186,0.7226165,0.5492467,0.88966703,0.9124159,0.53913605
9882060401,0.023343561,0.0023829932,-0.007240448,0.79866385,0.78324366,0.8013023,0.817454,0.7926552
9882160679,-0.113604665,0.02741012,0.0018259989,0.7357474,0.8128045,0.6619136,0.6974539,0.77081734
9882260713,-0.29719254,0.029061079,0.012203812,0.7719103,0.9490235,0.6163405,0.6358956,0.88638145
9882360581,-0.13968438,0.01540581,0.0181413,0.88060486,0.97457933,0.8186552,0.8084174,0.9207673
9882460856,-0.014408174,0.010106525,0.0106410375,0.9623169,0.9847444,0.9586739,0.95418197,0.95166695
9882560231,0.011690992,0.005643751,0.0011175545,0.98172295,0.9807774,0.9846412,0.9906499,0.9708231
9882660868,0.001583294,0.005588469,-0.0028533116,0.9460785,0.9470621,0.94005775,0.9529981,0.94419575
9882761645,-0.00822351,0.0068466514,-0.0030614424,0.8973873,0.90395945,0.8854107,0.90049773,0.89968115
9882861994,-0.0053020427,0.0069336053,-0.0005834975,0.8654815,0.8725642,0.85736865,0.86820424,0.86378866
9882959015,-0.0036233435,0.007369117,-0.0002863908,0.8400574,0.84684384,0.8327652,0.8436923,0.8369279
9883062604,-0.003761813,0.0057741455,-0.00052595604,0.8154682,0.8210121,0.8089957,0.81809,0.8137747
9883162411,9.146091e-05,0.0062956614,-0.00031937988,0.79736686,0.80152875,0.79264104,0.8021082,0.79318917
9883262337,0.002258087,0.0050782035,-0.0009366416,0.78567976,0.7874351,0.78227085,0.7911059,0.7819069
9883359251,0.003326953,0.005778608,-0.0002466889,0.7840315,0.78628063,0.7813468,0.7899544,0.77854395
9883459436,0.005586762,0.004497653,-0.00049936137,0.78535426,0.7853847,0.7844421,0.79168427,0.7799057
9883559030,0.006878881,0.004536024,-0.0002364942,0.78695184,0.78657055,0.7869155,0.79374796,0.7805731
9883659013,0.008798455,0.0057347603,-0.00044135068,0.7864539,0.78581256,0.786316,0.7952053,0.77848154
9883759173,0.010694784,0.0035473984,-0.0002734099,0.7867602,0.78376126,0.78927636,0.79477584,0.77922714
9883859246,0.011260525,0.003774491,-0.00012582944,0.7880388,0.7850331,0.7908222,0.7963823,0.7799173
9883959373,0.014670281,0.0051419814,-7.248099e-05,0.7905002,0.7868132,0.79405916,0.801459,0.7796693
9884059420,0.014653609,0.0040028677,-0.0004664781,0.79163164,0.7868459,0.7955938,0.8020782,0.7820084
9884159557,0.017324192,0.004073176,-0.0006612651,0.7934826,0.78727454,0.79852325,0.80545086,0.7826815
9884259696,0.017900664,0.0038907668,0.00059789605,0.7954705,0.7898115,0.8021848,0.80663174,0.78325367
9884359720,0.019378683,0.0058722296,-0.000692676,0.7978054,0.7918277,0.80256027,0.81208766,0.7847459
9884459896,-0.25711673,0.0074698357,-0.00093079725,0.66554224,0.79748327,0.53195804,0.5441651,0.7885624
9884559752,0.19172178,-0.57518435,0.050923396,0.8608194,0.0,1.0,0.10264693,0.7175623
9884659967,0.114799425,-0.0010823831,-0.04331081,0.9121427,0.8199684,0.92507386,1.0,0.897956
9884760197,0.037572466,0.1780482,-0.033439204,0.81447923,0.8961742,0.6737537,0.9845823,0.7034065
9884860885,0.016826577,0.105586454,0.0054957485,0.772327,0.8428582,0.71149737,0.8511175,0.68383473
9884960632,0.012742587,0.023399763,0.020111084,0.78367037,0.80929506,0.79354775,0.7911378,0.7407006
9885060535,0.015205795,-0.016577296,0.013401139,0.7952623,0.7862636,0.827918,0.78081703,0.78605026
9885160414,0.016555013,-0.018979484,0.0042920946,0.79644704,0.77811015,0.82236063,0.78794277,0.79737437
9885260308,0.017895015,-0.013671761,-0.0006121904,0.7941263,0.77512544,0.8120463,0.7937922,0.7955409
9885360677,0.018016197,-0.009856471,-0.002700045,0.79298884,0.7750279,0.8061833,0.7970105,0.7937335
9885460731,0.018008105,0.5139185,-0.00020131966,0.65131223,0.9818501,0.27285412,1.0,0.25541493
9885560426,0.0068908758,0.056339763,0.035056166,0.79528093,0.85853416,0.7939125,0.81170404,0.7169728
9885660386,0.005582642,-0.009865463,0.021815488,0.7410916,0.74804556,0.7726485,0.72018564,0.7234865
9885760630,0.018705616,-0.28698003,-0.00047077192,0.73338777,0.52083546,0.9451089,0.54008895,0.92751753
9885860446,0.03351888,-0.1975412,-0.02814478,0.7817628,0.6039359,0.9099054,0.6802241,0.93298554
9885960807,0.024951378,-0.04113901,-0.02883672,0.8421307,0.77861154,0.8547441,0.8474704,0.88769656
9886061891,0.014388266,0.030266624,-0.012807923,0.8656722,0.8701441,0.8385902,0.90400356,0.84995055
9886161684,0.010491267,0.02874314,-0.0005782482,0.84557086,0.8602555,0.82986534,0.87153506,0.82062733
9886262287,0.008014551,0.009222274,0.004854343,0.8108546,0.81712043,0.81315804,0.81763095,0.7955088
9886358950,0.0052823634,-0.20597997,-0.0066728913,0.6547913,0.5014178,0.79638493,0.516865,0.8044972
9886459043,0.00249219,0.15435687,-0.017760262,0.68518466,0.7795047,0.55951214,0.809158,0.5925635
9886562805,-0.5490916,0.16914335,0.0021383064,0.8618293,1.0,0.21727516,0.4527052,0.7570204
9886662812,0.1470679,0.028477319,0.011578481,0.8469137,0.8030562,0.91121066,0.9310441,0.7423436
9886759320,0.17753506,-0.010375483,-0.011337941,0.78184676,0.6778852,0.8657933,0.8711351,0.7125733
9886859516,0.063228,-0.015106001,-0.012035243,0.78909606,0.73788166,0.81906444,0.8189472,0.7804907
9886960174,-0.0037357006,-0.0027567185,-0.006381591,0.80805725,0.8030746,0.8017743,0.80914116,0.8182387
9887060362,-0.013964124,0.0062919706,-0.0034287213,0.8069225,0.81566507,0.7921271,0.80707794,0.81281966
9887160607,-0.004452821,0.0069096335,0.0002483807,0.7924141,0.79969585,0.78557074,0.794904,0.7894857
9887260747,-0.0035527076,0.003919412,0.00017541181,0.78163815,0.7863037,0.7772821,0.78251535,0.7804512
9887360503,-0.003548612,0.003916346,0.00013380987,0.7789267,0.7835562,0.7745332,0.7798356,0.7777814
9887460374,-0.005884375,0.0045848764,0.000667703,0.78032094,0.7869889,0.77483153,0.7801369,0.7793262
9887560284,-0.008149533,0.0043981913,0.00018638826,0.7828701,0.7901598,0.7759093,0.78180027,0.7836108
9887660614,0.24081789,0.00011295639,0.00012954196,0.79029197,0.6711737,0.90963876,0.90956986,0.6707853
9887760652,0.032163862,-0.007963855,0.002616475,0.7837976,0.76423526,0.80797875,0.7920973,0.770879
9887860832,-0.17340565,-0.010971295,0.0048741014,0.7369719,0.81884646,0.66370153,0.6395815,0.8257579
9887957512,-0.23237246,-0.0137023665,0.0051144706,0.749364,0.85870254,0.649054,0.6206473,0.869052
9888062253,-0.07083929,2.3444882e-06,0.0045446465,0.7989442,0.8375164,0.76839453,0.7603751,0.8294904
9888162316,0.008523194,0.002229984,0.0018355645,0.837198,0.8359573,0.841679,0.8415923,0.82956326
9888262520,0.018853199,0.0026369286,-0.00088643195,0.8378192,0.8296658,0.8444077,0.84970176,0.8275014
9888358812,-0.5002334,0.009234136,-0.00290492,0.6684673,0.92058104,0.41122538,0.42941248,0.91265
9888459241,0.11075843,-0.0043571657,-0.004007718,0.75351286,0.6924968,0.807454,0.80836684,0.7057336
9888563058,0.12234938,-0.012966225,-0.00395949,0.8314506,0.7586419,0.8972694,0.88592213,0.7839686
9888659578,0.042102966,0.0021865526,-0.00554623,0.8558554,0.83229977,0.86962014,0.88250315,0.8389983
9888759809,0.007891318,0.0044505107,-0.002002086,0.8834756,0.8811811,0.8822357,0.892064,0.87842137
9888859908,-0.0014594194,0.005176519,0.00049765105,0.8531711,0.85793525,0.84928536,0.85572755,0.84973603
9888959935,-0.0011214542,0.004187516,0.0011086508,0.78365225,0.7880172,0.7812443,0.7852092,0.7801381
9889059860,0.0018425466,0.0038558596,0.0011232423,0.74612236,0.7487956,0.74543184,0.74890196,0.7413598
9889159793,0.0019858258,0.0029342624,0.0010949369,0.718334,0.720263,0.71833783,0.72055453,0.71418047
9889259807,0.0025929485,0.0028851102,0.0009861122,0.68163526,0.6831454,0.68186575,0.6842051,0.67732453
9889360059,0.0022557215,0.0015414369,0.00036561477,0.64657646,0.6468287,0.6469695,0.648504,0.6440034
9889460103,0.00035430654,0.0015381479,-9.288918e-05,0.6105917,0.6114327,0.60958666,0.6119259,0.6094214
9889559837,0.002136363,0.0025956372,0.00044034404,0.5720132,0.5731272,0.57167643,0.5745698,0.5686791
9889660289,0.0017238293,0.0030045626,0.0001388336,0.53873885,0.54011565,0.537607,0.541611,0.53562146
9889760348,0.0014183449,0.00320668,0.00028139574,0.56784374,0.5696239,0.5665602,0.5705984,0.5645922
9889860431,0.0014534529,0.0020865088,-6.987981e-05,0.5912929,0.59199476,0.59046763,0.59354174,0.5891673
9889960997,0.0010268253,0.002094477,7.826451e-05,0.5927189,0.5937511,0.59182477,0.5946486,0.5906509
9890061278,0.0012275239,0.0016200729,0.00021480216,0.6073837,0.6080855,0.607061,0.60897297,0.60541517
9890161477,0.0011134665,0.0022658885,1.1671975e-05,0.66163015,0.6626897,0.6605911,0.66377497,0.6594646
9890261391,0.0015610514,0.0027622269,-0.00026101194,0.711252,0.71223205,0.70981103,0.71417814,0.7087864
9890361770,0.0016365135,0.0036334665,0.00010334546,0.76238704,0.76422465,0.76073176,0.7656878,0.7589037
9890462059,0.0018202267,0.0022654869,-0.00015534341,0.7845543,0.78513557,0.7836987,0.7871768,0.78220594
9890561576,0.0024075448,0.0023309719,-0.00024075946,0.79105407,0.79132533,0.7903577,0.7940791,0.7884539
9890662083,0.002248967,0.0024631443,0.00027436664,0.83784646,0.83868396,0.8374932,0.8404922,0.83471626
9890762037,0.00036407996,0.0029131337,-0.0006372551,0.8614788,0.8628706,0.858962,0.8642067,0.85987574
9890862555,0.0012356605,0.0029147984,0.00016520088,0.7621239,0.7636992,0.7608401,0.7646706,0.7592854
9890962767,-0.019786194,0.008957529,0.27870932,0.6981833,0.9276169,0.96075684,0.48141748,0.42294174
9891059006,-0.0445397,0.017190447,0.27441964,0.63663554,0.8808702,0.87683535,0.41671172,0.3721246
9891159356,-0.03321229,0.010204366,0.17332478,0.64573854,0.8020534,0.79539484,0.50385475,0.48165095
9891259477,-0.015011261,-0.00043858858,0.110305905,0.66510797,0.7566519,0.7682876,0.5729437,0.56254846
9891359882,-0.0069702542,-0.0025412468,0.07006009,0.6825665,0.7378399,0.75097054,0.6236992,0.61775625
9891460338,-0.0040385774,-0.0017967192,0.058569968,0.69579065,0.7413447,0.7536304,0.64769554,0.6404917
9891559517,-0.004617049,0.00041242968,0.046290427,0.7041754,0.7421806,0.7478869,0.6667534,0.6598805
9891662653,-0.0041081277,0.001122647,0.05026808,0.7060973,0.74739665,0.75353634,0.66638553,0.65707046
9891762093,-0.007047127,0.0008407197,0.043972388,0.70472497,0.74246275,0.7446118,0.668176,0.6636491
9891861757,-0.00786685,0.0011969088,0.037968352,0.7052518,0.7390526,0.73847663,0.6731436,0.67033416
9891961445,-0.008248593,0.0003409562,0.038417302,0.7066645,0.74039274,0.7407544,0.67341834,0.67209226
9892061433,-0.007841715,0.0017100393,0.043962937,0.7036526,0.74239147,0.7425217,0.667332,0.6623651
9892161984,-0.00772387,0.002176044,0.05012627,0.70221114,0.745938,0.7469724,0.66156155,0.6543724
9892261942,-0.008392313,0.00093155634,0.048484575,0.705765,0.7476866,0.7494334,0.66516066,0.6607791
9892361739,-0.0063624685,0.0017032468,0.049184456,0.71034646,0.75234383,0.7551746,0.6707578,0.6631094
9892462484,-0.007918669,0.0017246325,0.04307495,0.70519024,0.743298,0.7431229,0.66952133,0.66481847
9892562795,-0.007966543,0.0037253534,0.048059355,0.70484877,0.74820954,0.74632734,0.66675633,0.6581016
9892659288,-0.006807794,0.00294856,0.042351104,0.70793104,0.74579996,0.7448247,0.6742319,0.6668674
9892759812,-0.0053482484,0.003812627,0.047285818,0.7102393,0.7517727,0.7521797,0.6740976,0.66290694
9892859584,-0.005525727,0.0030927828,0.04237667,0.70826995,0.7456253,0.7457223,0.6752883,0.6664437
9892959940,-0.0070294556,0.0043514175,0.04300173,0.7059216,0.74539024,0.74236405,0.67260665,0.6633252
9893060412,-0.005871261,0.0027591381,0.049407214,0.7048263,0.7474974,0.7493739,0.66605705,0.6563766
9893160237,-0.0057810117,0.0027112635,0.041588012,0.7086084,0.74521685,0.7454154,0.6758341,0.66796696
9893260523,-0.006477563,0.0028643452,0.042478353,0.7046226,0.74236584,0.7418666,0.6709301,0.66332775
9893360638,-0.0054264152,0.002758577,0.048564166,0.7035189,0.74532413,0.7474442,0.66561484,0.6556923
9893460719,-0.004182403,0.0019663628,0.042705532,0.70610106,0.74224615,0.7453442,0.67273676,0.6640769
9893560541,-0.007309134,0.003321798,0.036238234,0.70760185,0.7413048,0.73787034,0.6785965,0.6726355
9893660307,-0.006692048,0.0011960036,0.03744627,0.70695454,0.73977315,0.7402399,0.6758272,0.67197764
9893760612,0.020121515,0.007784863,-0.2561432,0.69720834,0.49671718,0.44552824,0.9087088,0.93787885
9893860450,0.044862814,0.010076575,-0.20633481,0.68037724,0.5073688,0.4891415,0.86763597,0.8573625
9893961177,0.045882598,0.017133273,-0.40433678,0.67520833,0.3104519,0.23678547,0.9747937,1.0
9894062368,0.04966483,0.021108266,-0.32251823,0.65350634,0.39700377,0.34066543,0.9398604,0.93649554
9894162473,0.03296117,0.0073879124,-0.19519183,0.64699805,0.48651206,0.4629106,0.81793195,0.82063735
9894259201,0.016635513,-0.0005057878,-0.11852021,0.6666088,0.56730586,0.5566872,0.7651963,0.77724564
9894359266,0.0070502167,-0.0015847282,-0.072780274,0.6883691,0.6280567,0.62020195,0.7464402,0.7587773
9894459427,0.0047727665,0.0003110367,-0.060867563,0.69820434,0.64947754,0.6394811,0.7473709,0.75648755
9894559223,0.0046448484,0.0021233817,-0.05175126,0.7036452,0.6632401,0.65269345,0.74705315,0.751594
9894659169,0.006175046,0.0036721085,-0.05049167,0.7086257,0.6695216,0.6585964,0.7529228,0.7534617
9894759119,0.008033127,0.0016798467,-0.049899668,0.70954853,0.6685683,0.6624405,0.7529043,0.7542808
9894859131,0.0067256195,0.0028810962,-0.04874884,0.705113,0.66651064,0.6576586,0.74778974,0.7484928
9894959574,0.0063567306,0.003670734,-0.043455344,0.7041924,0.67038226,0.6612904,0.7431936,0.74190307
9895060074,0.007119503,0.0022256817,-0.04766909,0.7063922,0.66795766,0.6606761,0.7479743,0.7489606
9895160429,0.00664811,0.0018617354,-0.041847713,0.7108069,0.67680365,0.67093605,0.74744296,0.7480447
9895260534,0.0062636044,0.0033001832,-0.047794513,0.7086718,0.67132497,0.66164654,0.7506857,0.7510298
9895360541,0.00648389,0.0028561603,-0.048708044,0.7079664,0.6694974,0.6604507,0.7504745,0.75144273
9895460402,0.0072700256,0.0031466947,-0.04342696,0.7064771,0.67186576,0.6644265,0.7455384,0.7440775
9895560193,0.005825738,0.0016724397,-0.050313186,0.70805967,0.6678512,0.6594498,0.7506331,0.75430423
9895660720,0.0056987396,0.002232048,-0.050187767,0.70294386,0.66329,0.6540008,0.7457542,0.7487302
9895760866,0.006743749,0.0035802696,-0.048559263,0.7018705,0.6638986,0.6541203,0.74490553,0.7445573
9895860523,0.005773128,0.0028082428,-0.04836418,0.7077468,0.6698592,0.66025674,0.7496058,0.7512653
9895960620,0.005108757,0.0012398087,-0.049422685,0.7094952,0.67001754,0.66172653,0.7507261,0.75551033
9896060649,0.006423165,0.0030508372,-0.048785172,0.70412046,0.66576016,0.6563599,0.7467952,0.74756634
9896160982,0.0062432704,0.0011623492,-0.043470226,0.7050901,0.6695511,0.6638908,0.7422728,0.74464554
9896261581,0.0074143973,0.0013052886,-0.048069216,0.7066215,0.6670838,0.6613022,0.7480051,0.7500948
9896362422,0.0066577345,0.0010803824,-0.04151784,0.7102494,0.6759413,0.6712657,0.7460853,0.74770516
9896462055,-0.011358941,0.00583417,0.2428544,0.7047416,0.9003519,0.93784356,0.5173819,0.46338883
9896562318,-0.062282618,0.037140034,0.53771585,0.68478423,0.9916434,1.0,0.13044885,0.017044544
9896662418,-0.04098777,0.048506033,0.42130205,0.69630986,1.0,0.9896697,0.31454054,0.187675
9896762927,-0.029836992,0.016473785,0.24546438,0.68658197,0.90086675,0.9056168,0.49559447,0.44424957
9896859445,-0.022348743,-0.0037848211,0.1334961,0.6716326,0.7821929,0.7967337,0.5557197,0.5518839
9896959854,-0.011266003,-0.0060224687,0.07643204,0.68122905,0.74104536,0.7563386,0.61289555,0.6146365
9897060197,-0.0051361755,-0.0010829745,0.055206105,0.69591075,0.73993886,0.7493382,0.650351,0.6440147
9897160188,-0.0034844475,0.0011167229,0.05357624,0.7062221,0.74974006,0.7572825,0.66428334,0.65358233
9897260807,-0.005839252,0.0035242846,0.03926941,0.70401984,0.73945767,0.7379044,0.67356604,0.665151
9897360239,-0.0056748763,0.0016372784,0.043512214,0.70511967,0.7423887,0.7446629,0.67016596,0.6632609
9897459898,-0.007585783,0.0023731128,0.04345325,0.70612013,0.74481106,0.7441374,0.6707852,0.66474664
9897559651,-0.007234309,0.0020457203,0.049483277,0.7079051,0.7508052,0.7523581,0.66789794,0.660559
9897659726,-0.0068688067,0.0027479408,0.04945012,0.7059739,0.7491641,0.7500782,0.6666698,0.65798336
9897760200,-0.007478859,0.0025755228,0.04293076,0.70208114,0.7404623,0.7394858,0.6673422,0.66103405
9897860359,-0.007580569,0.003046276,0.047200397,0.7073739,0.7494059,0.7486649,0.6696499,0.6617747
9897960320,0.09565893,-0.1268867,-0.265454,0.8919237,0.38845116,0.6052244,0.8578836,1.0
9898060460,-0.0022970121,0.14951463,-0.20657699,0.8814724,0.6860865,0.42388272,1.0,0.83931243
9898160670,-0.006704475,0.10534549,-0.090711474,0.8539265,0.86231613,0.68540317,0.9945177,0.87346864
9898260653,-0.012092861,0.024120746,-0.026617978,0.8077601,0.8104357,0.7580955,0.8391963,0.8233127
9898360521,-0.0077873324,-0.012728716,-0.007735532,0.7912701,0.7802071,0.78867733,0.7843318,0.81186384
9898460553,-0.0063455952,-0.01570498,-0.0032819267,0.7837774,0.7733041,0.788457,0.7720404,0.8013079
9898560237,-0.0031559346,-0.011357479,-0.0012337007,0.7802435,0.77283174,0.78547734,0.7715933,0.7910715
9898660285,-0.00311488,0.3080732,0.0022444203,0.78808945,1.0,0.5617593,0.99347854,0.5603566
9898760425,0.017476654,0.033837304,-0.0076803546,0.76159775,0.7709888,0.7386484,0.80005974,0.7366938
9898860539,0.002671279,-0.111555286,-0.009213437,0.72097874,0.6337228,0.79197,0.65047157,0.80775034
9898960669,-0.012068303,-0.25189614,0.0033154069,0.7292358,0.55963403,0.9046902,0.54260254,0.9100163
9899060504,-0.008502518,-0.11659382,0.010956278,0.78191185,0.7120644,0.87110037,0.68687063,0.8576118
9899160502,-0.0066214344,-0.42003524,0.005151971,0.69517624,0.40538943,0.9940578,0.3909434,0.9903141
9899260441,-0.01664672,-0.019507907,0.0011224532,0.7033733,0.69868463,0.7100434,0.68047357,0.72429144
9899360656,-0.56968975,0.22308584,-0.029825756,0.8911208,0.97717416,0.090253405,0.45839596,0.7143348
9899460892,0.058963813,0.1103845,0.0039959894,0.9159852,0.94463867,0.8478887,0.99694186,0.7814773
9899561121,0.11823742,0.006370472,0.011820039,0.80839413,0.76337177,0.87428236,0.86242557,0.7334966
9899661663,0.065775216,-0.013416807,0.0060892627,0.76515144,0.7277404,0.81331176,0.7835881,0.73596525
9899762043,0.009649188,-0.012458606,0.0013139467,0.7724655,0.75988144,0.787369,0.76743037,0.77518106
9899861797,-0.011363445,-0.006995899,-0.0014013508,0.7888855,0.78849536,0.78680164,0.77938175,0.8008629
9899961919,-0.015545074,-0.002401765,-0.0025916025,0.7955238,0.7995429,0.78692967,0.78810805,0.8075144
9900062076,-0.014527476,0.0007872676,-0.002507011,0.78709954,0.79293424,0.7768391,0.7823781,0.7962465
9900158085,0.10997416,0.003097158,0.0019156653,0.6504062,0.59958285,0.7046112,0.70560944,0.591821
9900261868,0.02793133,0.0050213872,0.0033744758,0.8149242,0.8072205,0.8285847,0.829729,0.7941623
9900362136,-0.22252506,-0.011117621,0.003957681,0.75109714,0.8564998,0.6526809,0.6299717,0.865236
9900462675,-0.2497043,-0.022956789,0.0024275016,0.7604094,0.86973363,0.65537035,0.6186193,0.8979141
9900562467,-0.07705815,-0.0075134817,-0.00063574174,0.82523626,0.85761017,0.79173994,0.7822366,0.8693581
9900662940,0.015144227,0.002526984,-0.002544453,0.86942655,0.86176383,0.8725974,0.8806628,0.8626819
9900759611,-0.43531105,0.012572315,-0.00083029876,0.7048548,0.9287552,0.47948855,0.49873418,0.91244096
9900859984,0.17033303,0.009321622,-0.0070384713,0.6934677,0.6102922,0.764218,0.7898258,0.6095345
9900960646,0.18529904,0.003099617,-0.0016641519,0.637796,0.54692,0.7257341,0.73305535,0.54547423
9901060681,0.068825275,-0.0021194108,0.0024194298,0.5787638,0.5450218,0.6167767,0.60950834,0.5437481
9901160553,-0.0093264,0.0031938453,0.0028119576,0.63242,0.6414505,0.62835336,0.62790614,0.63196975
9901260508,-0.026020916,0.003865405,0.0015705326,0.71082145,0.7276469,0.69676834,0.69946235,0.719408
9901360564,-0.0143313585,-4.6144807e-05,0.0011387146,0.7447852,0.7527235,0.7388569,0.7367815,0.7507786
9901460669,-0.0011128634,-0.001136089,-0.00041176728,0.7338335,0.73326623,0.73367375,0.7327939,0.7355998
9901560230,0.0013472369,-0.00030028657,-0.00063141086,0.72984946,0.7284865,0.7300977,0.7307877,0.7300257
9901660685,-2.7893635e-05,-0.0016034795,-0.00056841667,0.72069997,0.7191449,0.72125155,0.7199873,0.7224159
9901760707,-0.0019860766,0.0005141144,-0.00033826265,0.7196396,0.7207281,0.71795386,0.71927804,0.72059816
9901861088,-0.000926183,0.001409638,0.00018979493,0.7230181,0.7246189,0.7217522,0.7234107,0.72229034
9901961511,-0.002132386,0.0029175743,0.00031811954,0.7265181,0.7298809,0.72371674,0.7272812,0.72519326
9902061687,-0.0019914284,0.0008339038,0.00023583346,0.72215056,0.7239072,0.7208102,0.7215732,0.7223115
9902161745,-0.0026519862,0.0010586234,-0.00034930347,0.7183817,0.72017664,0.71597004,0.7180838,0.7192961
9902262014,-0.0010975149,0.0028276923,0.0006365968,0.7201787,0.723209,0.7182721,0.72114724,0.7180863
9902362418,-0.0022151726,0.0012357129,0.00027881493,0.7241103,0.72629476,0.72241795,0.7236733,0.724055
9902458809,-0.0023069736,0.0017222015,7.4655516e-05,0.71826476,0.7206825,0.71597874,0.71828246,0.7181151
9902562744,0.00017876754,0.00226661,-0.00039052404,0.7157571,0.71697235,0.7138523,0.71774715,0.71445626
9902662947,-0.0011867771,-0.0018017475,0.00030304422,0.71908444,0.7186302,0.7200735,0.71699053,0.7206433
9902758983,-0.00086151465,0.00039125927,-0.0004178835,0.7223091,0.72269267,0.7211877,0.72247875,0.7228771
9902859346,-0.00019254547,0.00507214,0.00048852875,0.7163708,0.7204266,0.7131773,0.719488,0.7123911
9902959665,-0.0016072502,0.008488896,-0.0007355787,0.7144278,0.72066355,0.70689344,0.7201971,0.709957
9903059970,-0.0003290913,0.0051984102,0.00050240324,0.71846056,0.72268385,0.7151241,0.7215888,0.7144453
9903159850,-0.0011031373,0.0035913077,0.00011091819,0.72254026,0.725711,0.7195652,0.72444826,0.72043633
9903259946,0.00037555088,0.0037245976,0.00060274056,0.7177102,0.7206191,0.7158652,0.7200686,0.7142877
9903360283,-0.00077292416,0.0033241874,-0.0005509872,0.71395546,0.71626717,0.71067095,0.7163448,0.7125387
9903460178,-0.0017774047,0.0005730973,-0.00021496008,0.71814066,0.7192618,0.71663994,0.7178299,0.71883076
9903560146,0.00048746192,0.0031647587,2.5855377e-05,0.7224353,0.72445136,0.72046477,0.72489476,0.71993005
9903660329,-8.3649764e-05,0.005443854,-0.00010252639,0.7164133,0.72022563,0.7124199,0.72029966,0.7127078
9903760490,-0.0008380852,0.0028752666,-0.00064463157,0.7137738,0.7157287,0.7106808,0.71588504,0.7128004
9903860675,0.00027238845,0.002952416,-0.00027590466,0.7180108,0.71975225,0.7157821,0.7204445,0.71606404
9903960725,-0.0006566637,0.0060873586,-1.4110003e-05,0.7225362,0.7271551,0.7178923,0.726526,0.7185712
9904060644,-0.0010125571,0.0025297767,0.000278586,0.7166387,0.71914226,0.7146268,0.71771264,0.7150728
9904160732,-0.0003446082,0.0028385704,0.00016055541,0.7136263,0.715927,0.71160895,0.7153399,0.7116292
9904260499,-0.0010445617,0.0035100593,-0.00012297445,0.7163473,0.7192525,0.7132248,0.71840584,0.7145057
9904360446,-0.0011883182,0.0038731652,-0.00028134004,0.72080344,0.7239155,0.7171946,0.72316873,0.71893466
9904460622,-0.00031488668,0.0035256906,0.0002690347,0.7149652,0.71782005,0.7125852,0.7170963,0.7123591
9904560261,0.0005598888,0.0035271775,0.00021794112,0.7137234,0.7161069,0.7117245,0.716328,0.710734
9904660559,-0.00081970927,0.00318119,-9.337696e-05,0.71813124,0.7207152,0.7153823,0.72004604,0.7163812
9904760459,-0.00039732805,0.0032816408,-0.00031848327,0.7224587,0.7247322,0.7196229,0.72482604,0.7206535
9904860950,-0.00023280697,0.0045562456,0.0002109771,0.7171594,0.7206579,0.71403325,0.7201043,0.7138419
9904960503,-0.001132441,0.004261266,-5.4530276e-05,0.7128175,0.71634984,0.70918876,0.71531135,0.7104198
9905056514,-0.00037036804,0.0034736816,-0.00013069372,0.7156592,0.71736133,0.714327,0.7170174,0.71579146
9905160661,-0.00044330378,0.00390642,0.00031455568,0.7206103,0.72383285,0.71794295,0.7229122,0.71775305
9905261375,0.0006868143,0.0034822498,-0.00019961392,0.7558286,0.7577979,0.75350684,0.7587839,0.7532256
9905361742,-0.00042470839,0.0041269087,-9.788893e-05,0.820291,0.8233446,0.81706446,0.8230736,0.817681
9905462523,-0.00037035067,0.0038321868,-9.4623305e-05,0.7424077,0.7452284,0.73941976,0.7450063,0.739976
9905559299,-0.0009604453,0.0029471563,-8.727668e-05,0.6695941,0.67208695,0.66694707,0.67126906,0.6680731
9905660064,0.00024996905,0.0018447945,0.00022797771,0.6029119,0.60426694,0.60195917,0.6041657,0.60125554
9905760569,0.0009780186,0.0035112638,8.11739e-05,0.63544923,0.63750964,0.633532,0.6383544,0.63240063
9905860671,0.00033379646,0.004327321,-9.709125e-06,0.7259724,0.7288594,0.7230681,0.729205,0.72275686
9905960488,-0.0013748533,0.0038917288,-5.809855e-05,0.73063993,0.73402834,0.72714883,0.7327551,0.7286272
9906061090,-0.00063497777,0.004317372,-0.0002028206,0.72037727,0.7235894,0.71680695,0.7232707,0.71784174
9906160590,0.00090738817,0.0039486224,-0.00035646613,0.7361103,0.73818004,0.7334112,0.7396247,0.73322517
9906260369,-9.179438e-05,0.004106952,-0.00023634816,0.794445,0.79721355,0.79125905,0.7974844,0.7918227
9906360428,-2.8709459e-05,0.0028543663,-0.00020079035,0.7885875,0.79046637,0.78635406,0.79074526,0.7867841
9906460418,-0.0015918374,0.004733662,-0.00025057854,0.7043069,0.7082509,0.6999205,0.70705724,0.7019988
9906560303,-0.0002693231,0.002739575,0.00027883332,0.6266454,0.6289293,0.62485355,0.6282357,0.62456274
9906660609,6.431461e-05,0.0038382804,-0.00019575542,0.5830745,0.5856069,0.5801965,0.58597016,0.58052427
9906760847,0.0006592282,0.0019250672,-0.00025174656,0.6770995,0.6779415,0.675813,0.67897993,0.6756634
9906861976,-0.00067479024,0.0033369504,-0.00058231514,0.72994167,0.7321898,0.72666544,0.7324126,0.72849864
9906962357,0.0002757758,0.002556702,-0.00066222035,0.7213487,0.7225131,0.7190152,0.72379994,0.72006637
9907062516,-0.0006534795,0.0030454772,9.4596035e-06,0.7210439,0.72352827,0.7185761,0.72286636,0.7192046
9907162707,8.939427e-05,0.0039064647,0.00018239139,0.7243257,0.7271833,0.72179,0.7269926,0.7213367
9907262757,-0.0005878432,0.003591599,0.00019463633,0.77073085,0.7737106,0.76809454,0.7728303,0.7682877
9907359007,-0.0002038933,0.0035372071,0.00016994402,0.83103,0.83376217,0.8285977,0.83330005,0.82845986
9907459290,0.00033675367,0.0041525057,-0.00010140157,0.8009593,0.8036511,0.7980884,0.8041399,0.79795754
9907559108,-0.0005414235,0.004496545,0.00012977708,0.7236004,0.7271474,0.7202823,0.72641236,0.72055924
9907659305,0.00035457563,0.0036191144,-0.00010311813,0.6977115,0.700016,0.6952249,0.70052516,0.6950798
9907759358,0.00011484731,0.003271557,0.00047561948,0.7064561,0.7090765,0.70467526,0.7084623,0.7036102
9907859495,-0.0011991942,0.0039599217,-0.00018892514,0.6400674,0.64331686,0.63648427,0.64241797,0.63805026
9907959629,5.7174955e-05,0.00454701,-4.1022562e-05,0.6033217,0.6064771,0.6000937,0.6065966,0.60011905
9908060062,-0.00034161305,0.0034049063,0.0001272682,0.58136404,0.58403826,0.57891434,0.583505,0.5789983
9908160541,0.0013210984,0.0023529693,-0.0003561475,0.671463,0.6721997,0.6700975,0.6740538,0.6695008
9908260520,-0.00028184088,0.0035619207,0.00066154316,0.7417449,0.7449094,0.7397481,0.7436176,0.7387042
9908360514,-0.0007874256,0.001998337,-0.00011783627,0.7375945,0.73930734,0.7356735,0.73870754,0.7366893
9908460632,0.00047588762,0.0031659026,-0.00053860416,0.7249294,0.72652,0.72238785,0.7278159,0.72299355
9908560272,-0.00032228619,0.0031177849,0.00011071724,0.7516078,0.75405675,0.7493542,0.75356793,0.749452
9908660470,0.0017579601,0.0031078556,-0.0005866172,0.82271695,0.8235947,0.8208035,0.8262343,0.8202351
9908760434,0.00020734484,0.003147561,0.00011884122,0.87274826,0.8749621,0.8707441,0.87498564,0.87030095
9908860721,0.0006320186,0.004460678,-2.552454e-05,0.7731217,0.77594316,0.7702551,0.77660847,0.7696799
9908960664,0.0009887598,0.0033614524,-0.0003658589,0.6887219,0.6903289,0.6864689,0.6918686,0.68622094
9909060454,-6.6807785e-05,0.002997345,0.00034207132,0.701696,0.70411026,0.6998854,0.7035205,0.6992675
9909160691,0.00058450364,0.0047580814,-0.0003592088,0.6403772,0.6431772,0.636943,0.64430606,0.6370824
9909261289,0.00048969116,0.0024599193,-8.050657e-05,0.58516634,0.5866015,0.5835889,0.58720994,0.58326477
9909361795,0.0008843442,0.0020208317,-0.00043074667,0.5396194,0.5402805,0.5381977,0.54181606,0.53818303
9909462542,-0.00015203911,0.0026073079,-0.00052302005,0.62694657,0.62846524,0.6245045,0.6291151,0.6257012
9909562588,-0.0005062524,0.0021761358,-0.00018384377,0.70968735,0.71133614,0.7077139,0.71111596,0.7085831
9909662676,0.00078564254,0.004661735,-7.046903e-05,0.7464925,0.74934566,0.74351484,0.7502319,0.74287736
9909759147,0.00022513585,0.0036587534,0.00024077835,0.727196,0.72985584,0.7249611,0.7297103,0.72425646
9909859440,0.00017753139,0.0022738315,0.00026345762,0.77388066,0.77560216,0.77262414,0.77537477,0.77192134
9909959443,0.0016132217,0.0029749305,0.0003424789,0.8208467,0.82241315,0.81988466,0.8234873,0.8176014
9910059260,-0.00020073963,0.002548323,0.00017534109,0.7789684,0.7810039,0.7772423,0.78053665,0.7770905
9910159410,0.0012291591,0.0048417635,-5.0140425e-05,0.79486245,0.7976387,0.79199755,0.7989333,0.79087996
9910259297,0.00051108754,0.00287047,-0.00018419734,0.74303037,0.74466586,0.7410696,0.7454542,0.7409316
9910359326,0.00071009196,0.002613235,8.1845355e-05,0.7902074,0.79176605,0.7887931,0.7923443,0.7879259
9910459493,0.00054575125,0.0031995839,-0.00034186908,0.7146644,0.71639484,0.71233034,0.7174587,0.71247345
9910555391,-0.00079149735,0.0033486162,-6.5509266e-06,0.6667459,0.65762675,0.6550253,0.6593219,0.65353173
9910659644,-0.0006993995,0.0030547462,-0.00013425386,0.6064999,0.6089036,0.6038591,0.6084162,0.6048205
9910760153,-0.0005876708,0.0021832974,-0.00047883036,0.55579394,0.55726236,0.55348015,0.55741304,0.55502
9910860549,0.00022111915,0.0023206742,0.0002159533,0.54459995,0.5462966,0.5432844,0.54618514,0.5426334
9910960526,-0.00014931409,0.0010178171,-0.0003596809,0.63588965,0.63640803,0.63473624,0.6368106,0.6356035
9911060543,0.00010702593,-0.19225985,-0.0012383813,0.6809002,0.54395115,0.81566304,0.5459527,0.81803375
9911160631,-0.00071636704,0.0022643702,0.001336685,0.821055,0.824034,0.8204356,0.8212782,0.81847197
9911260559,8.231655e-05,-0.004394786,0.0008777035,0.7399995,0.7375227,0.74402547,0.73626095,0.7421885
9911360814,-0.00041632188,-0.0026999153,0.00044711513,0.67186636,0.6705056,0.6740163,0.66940874,0.6735346
9911460838,0.0009769634,0.00044417253,0.00022182506,0.6750665,0.6750663,0.67545813,0.6756947,0.6740465
9911560988,0.00034577574,0.0019150835,9.956327e-05,0.68214846,0.6834074,0.6810651,0.6835977,0.6805234
9911661750,0.0005909378,0.0024786883,6.8958376e-05,0.69108814,0.6926008,0.6896971,0.6930808,0.68897367
9911761533,-6.110262e-06,0.0032596905,-1.9632651e-05,0.6818015,0.68409437,0.6794739,0.6841184,0.6795191
9911861896,-3.499136e-05,0.0024334104,0.0009969654,0.6885096,0.69101053,0.68776846,0.68944985,0.68580925
9911962085,-0.0009926602,0.0033847988,0.00083091186,0.69983387,0.7033549,0.69777954,0.7010996,0.69710124
9912062183,-0.001156742,0.0035542075,-0.00033622736,0.68920326,0.6920321,0.68578076,0.6914007,0.68759924
9912158447,0.0001909042,0.003313774,0.00010369956,0.6797718,0.6820997,0.6776268,0.68213016,0.67723024
9912262526,-0.00032676558,0.0026775415,-7.332021e-05,0.6864583,0.6884573,0.68432975,0.6882458,0.6848001
9912362487,-0.000107906315,0.0036147148,-0.00018448425,0.6971955,0.69966364,0.6944015,0.6998392,0.6948773
9912458634,-0.00050618197,0.0033164748,4.3577016e-05,0.6897808,0.69240993,0.68722844,0.69184166,0.6876428
9912561885,-0.0003499603,0.0032458273,0.00024506505,0.68119514,0.6838512,0.67897165,0.6831293,0.6788282
9912662567,-0.00028421896,0.002330585,6.026248e-05,0.68776757,0.68960243,0.686039,0.68922853,0.6862001
9912762415,0.0001485034,0.0042782556,0.00020619844,0.70076174,0.70387113,0.6980162,0.70370257,0.6974568
9912863169,7.036254e-05,0.0018886616,-0.00013540305,0.692192,0.69338894,0.6907559,0.693666,0.690957
9912962670,0.0006706188,0.0035225388,-0.00029990252,0.68649113,0.6884201,0.68403256,0.6895436,0.683968
9913063038,0.00046042973,0.0032345983,-0.00053020875,0.69526297,0.6969162,0.6926736,0.698184,0.6932778
9913155581,-0.0002626712,0.003338349,7.985595e-05,0.7050806,0.7101241,0.7052204,0.70914334,0.70461947
9913259787,-0.00014891871,0.0031187595,9.153434e-05,0.70220923,0.70455825,0.7000217,0.70427066,0.6999861
9913359941,-0.000499345,0.0029982754,0.0004995211,0.69233507,0.6950848,0.69046706,0.6938254,0.68996274
9913460283,0.0004972804,0.003895876,-7.8680256e-05,0.69817495,0.70062315,0.69558775,0.70123625,0.6952524
9913560290,0.00037968316,-0.012350632,-0.00063128676,0.5628682,0.55346364,0.5711582,0.5548062,0.5720445
9913661138,-4.7535177e-06,0.023827937,-0.0011702223,0.55500567,0.5709613,0.53698415,0.5727477,0.5393293
9913760380,8.790537e-05,0.025398491,-0.0013302249,0.52859616,0.54549396,0.50935,0.54761714,0.5119233
9913860732,0.000429936,0.027861483,-0.0012717714,0.5155259,0.5340406,0.49476597,0.53641313,0.49688357
9913960513,-0.00015740134,0.029724548,-0.0010639966,0.5098493,0.5301314,0.48768884,0.531604,0.4899728
9914060852,-0.00077361485,0.030190289,-0.0015608344,0.49423695,0.51477337,0.4709451,0.516396,0.47483322
9914161332,-0.0007384315,0.03216789,-0.0013864052,0.46766305,0.48971394,0.44316468,0.49110436,0.4466691
9914261836,-0.00067360164,0.033910688,-0.0012064282,0.45690697,0.48029584,0.43138835,0.481475,0.4344686
9914362215,-1.5925187e-05,0.036200114,-0.0018137243,0.45411363,0.4783308,0.42669466,0.4810911,0.43033785
9914462883,0.00036561547,0.037301302,-0.0016348632,0.43857864,0.46352232,0.41074887,0.46638688,0.41365635
9914562553,-0.00071776006,0.026733212,-0.0010342302,0.12,0.13846728,0.09970696,0.13933916,0.10248655
9914659526,0.0005654887,0.02708839,-0.0010241447,0.12,0.13809045,0.1001016,0.1402183,0.10158961
9914759519,-0.00095566094,0.028383715,-0.0009514169,0.12,0.1398156,0.098504834,0.14032501,0.10135451
9914860238,-0.0006067089,0.028193027,-0.0005131711,0.12,0.13984329,0.099250786,0.14002764,0.10087824
9914959576,-0.000254234,0.027969914,-0.0010092908,0.12,0.13913123,0.09908704,0.14042418,0.10135751
9915059958,-0.0007364645,0.027278265,-0.00077731634,0.12,0.13905859,0.099569194,0.1395187,0.1018535
9915160297,0.0001079354,0.026718467,-0.0008381711,0.12,0.13819788,0.10032248,0.13958772,0.10189188
9915260509,-0.0023497953,0.027306784,-0.0012103983,0.001,0.0020000003,0.0,0.0020000003,0.0
9915360413,-6.287196e-05,0.02728296,-0.00040067843,0.001,0.0020000003,0.0,0.0020000003,0.0
9915460425,1.41419005e-05,0.027118253,-0.0011910913,0.001,0.0020000003,0.0,0.0020000003,0.0
9915560065,-0.001067887,0.026317326,-0.0012363307,0.001,0.0020000003,0.0,0.0020000003,0.0
9915660138,-0.0007263739,0.027372826,-0.0010641202,0.001,0.0020000003,0.0,0.0020000003,0.0
9915760306,-0.001300799,0.025873845,-0.00079985557,0.001,0.0020000003,0.0,0.0020000003,0.0
9915860408,-0.0006662977,0.025711982,-0.0009227197,0.001,0.0020000003,0.0,0.0020000003,0.0
9915960377,-0.0003132022,0.02709974,-0.0010132438,0.001,0.0019999985,0.0,0.0020000022,0.0
9916060585,-0.00087742595,0.025674721,-0.0013202778,0.001,0.0020000003,0.0,0.0020000003,0.0
9916161434,-0.00021096488,0.026844375,-0.00032064982,0.001,0.0020000003,0.0,0.0020000003,0.0
9916262219,-0.0013581306,0.026231324,-0.0006884275,0.001,0.0020000003,0.0,0.0020000003,0.0
9916362555,-0.00030422615,0.026015729,-0.000892183,0.001,0.0020000003,0.0,0.0020000003,0.0
9916462754,-0.0009214455,0.026538914,-0.0008461535,0.001,0.0019999985,0.0,0.0020000022,0.0
9916562086,-0.00028675632,0.025551155,9.691465e-05,0.001,0.0020000003,0.0,0.0020000003,0.0
9916662859,-0.00031859992,0.02655082,-0.00065844704,0.001,0.0020000003,0.0,0.0020000003,0.0
9916759302,-0.00043979823,0.026142813,-0.00066001137,0.001,0.0020000003,0.0,0.0020000003,0.0
9916859507,-0.0018688615,0.025102956,-0.00050683715,0.001,0.0020000003,0.0,0.0020000003,0.0
9916960147,-0.00061199756,0.025360722,-0.00033535008,0.001,0.0020000003,0.0,0.0020000003,0.0
9917059937,0.00012855924,0.024659421,-0.0008270658,0.001,0.0020000003,0.0,0.0020000003,0.0
9917160305,-0.00054949604,0.026545994,-0.0007125211,0.001,0.0020000003,0.0,0.0020000003,0.0
9917260874,-0.0007922844,0.00053846766,-0.00035494447,0.001,0.001599697,0.0,0.0011618111,0.0012384916
9917360433,-0.00018395315,-0.00027172937,9.545358e-07,0.001,0.00089971616,0.0011019687,0.0007160004,0.0012823144
9917460524,-6.063434e-05,-0.0006895145,-0.0004169983,0.001,0.00022334544,0.0010405248,0.0008015336,0.0019345959
9917560216,0.00019299118,-0.0012318912,-0.0008945398,0.001,0.0,0.0019231495,0.0002578426,0.0018190078
9917661167,-0.0005662844,-0.0011052126,3.227659e-05,0.001,0.0004369932,0.0015630068,0.0,0.0019999999
9917760235,-0.0009230558,-0.0014314807,-5.2224415e-05,0.001,0.0,0.0019999999,0.0,0.0019999999
9917860301,-0.0008689383,-0.00054326316,-0.00034727715,0.001,0.0007805393,0.0006064102,0.00045117043,0.0021618798
9917960425,-0.0009572066,-0.000105705316,0.0003370097,0.001,0.001657355,0.0009375702,0.00019315496,0.0012119196
9918060564,-0.0013097357,-0.0006300081,0.00021763906,0.001,0.0011090338,0.00089096616,0.0,0.0019999999
9918160803,-1.788279e-05,-0.0006451466,-9.4267425e-06,0.001,0.00054545695,0.0014379019,0.00054216787,0.001474473
